{
  "Status": 0,
  "Message": "success",
  "Data": [
    {
      "id":12121,
      "name":"xxx",
      "sex":"先生",
      "telephone":"15876543456",
      "city":"上海市",
      "address":"宝山区奥交割及哦啊个家",
      "longitude":"23.00",
      "latitude":"23.00",
      "houseNumber":"东方路135",
      "label":"家"
    },
    {
      "id":12121,
      "name":"xxx",
      "sex":"先生",
      "telephone":"15876543456",
      "city":"上海市",
      "address":"宝山区奥交割及哦啊个家",
      "longitude":"23.00",
      "latitude":"23.00",
      "houseNumber":"东方路135",
      "label":"家"
    },
    {
      "id":12121,
      "name":"xxx",
      "sex":"先生",
      "telephone":"15876543456",
      "city":"上海市",
      "address":"宝山区奥交割及哦啊个家",
      "longitude":"23.00",
      "latitude":"23.00",
      "houseNumber":"东方路135",
      "label":"家"
    },
    {
      "id":12121,
      "name":"xxx",
      "sex":"先生",
      "telephone":"15876543456",
      "city":"上海市",
      "address":"宝山区奥交割及哦啊个家",
      "longitude":"23.00",
      "latitude":"23.00",
      "houseNumber":"东方路135",
      "label":"家"
    },
    {
      "id":12121,
      "name":"xxx",
      "sex":"先生",
      "telephone":"15876543456",
      "city":"上海市",
      "address":"宝山区奥交割及哦啊个家",
      "longitude":"23.00",
      "latitude":"23.00",
      "houseNumber":"东方路135",
      "label":"家"
    }
  ]
}